City_ID,City,Lat,Lng,Max Temp,Humidity,Cloudiness,Wind Speed,Country,Date
0,chivhu,-19.0211,30.8922,59.32,40,0,11.7,ZW,1689869075
1,margaret river,-33.95,115.0667,58.44,74,65,19.15,AU,1689869075
2,edinburgh of the seven seas,-37.0676,-12.3116,53.29,64,34,24.9,SH,1689869075
3,chernyshevskiy,63.0128,112.4714,58.23,77,53,3.62,RU,1689869075
4,howrah,22.5892,88.3103,86.0,79,40,9.22,IN,1689869076
5,port-aux-francais,-49.35,70.2167,34.47,67,52,43.46,TF,1689868843
6,thompson,55.7435,-97.8558,68.16,73,40,4.61,CA,1689868951
7,punta arenas,-53.15,-70.9167,36.1,67,97,14.81,CL,1689868785
8,grytviken,-54.2811,-36.5092,21.99,93,100,3.96,GS,1689868849
9,port mathurin,-19.6833,63.4167,74.14,68,9,19.84,MU,1689869076
10,amga,60.8953,131.9608,55.98,99,100,6.02,RU,1689869077
11,nuuk,64.1835,-51.7216,48.81,100,75,3.44,GL,1689869077
12,kavaratti,10.5669,72.642,82.69,82,100,18.41,IN,1689869077
13,bilibino,68.0546,166.4372,55.09,78,95,1.52,RU,1689869077
14,papatowai,-46.5619,169.4708,38.91,79,6,9.62,NZ,1689868844
15,hermanus,-34.4187,19.2345,53.8,65,3,17.49,ZA,1689869078
16,kodinsk,58.6881,99.1844,64.22,52,6,3.02,RU,1689869078
17,az zuwaytinah,30.9522,20.1202,84.52,64,0,22.64,LY,1689869078
18,tiksi,71.6872,128.8694,43.52,62,55,7.18,RU,1689868827
19,waitangi,-43.9535,-176.5597,44.82,92,100,5.01,NZ,1689869078
20,voi,-3.3945,38.563,75.76,53,5,14.45,KE,1689869079
21,sarangani,5.4033,125.4636,83.66,73,70,13.76,PH,1689869079
22,carnarvon,-24.8667,113.6333,59.43,42,0,20.58,AU,1689868890
23,bethel,41.3712,-73.414,85.35,57,0,3.44,US,1689869079
24,canutama,-6.5339,-64.3831,95.68,27,4,4.27,BR,1689869079
25,petropavlovsk-kamchatsky,53.0452,158.6483,52.39,100,100,6.71,RU,1689868935
26,anadyr,64.75,177.4833,52.3,87,100,8.95,RU,1689868881
27,st. john's,47.5649,-52.7093,84.15,77,75,18.41,CA,1689868785
28,muisne,0.6,-80.0333,80.26,85,89,10.47,EC,1689869080
29,brookings,44.3114,-96.7984,71.1,73,40,13.8,US,1689868965
30,stanley,54.868,-1.6985,62.78,80,98,5.93,GB,1689869080
31,klyuchi,52.2667,79.1667,72.1,55,84,7.94,RU,1689869080
32,cill airne,52.05,-9.5167,60.85,67,40,6.91,IE,1689869080
33,nogliki,51.8333,143.1667,52.02,98,97,5.66,RU,1689869080
34,ribeira grande,38.5167,-28.7,73.8,88,20,5.75,PT,1689869085
35,sechura,-5.5569,-80.8222,78.44,62,5,9.28,PE,1689869086
36,mount darwin,-16.7725,31.5838,72.46,37,37,7.63,ZW,1689869086
37,molde,62.7375,7.1591,59.7,72,75,5.75,NO,1689869086
38,udachny,66.4167,112.4,60.66,62,100,3.69,RU,1689869086
39,adamstown,-25.066,-130.1015,72.93,81,100,33.51,PN,1689869086
40,luderitz,-26.6481,15.1594,61.9,52,0,16.8,NA,1689869086
41,talnakh,69.4865,88.3972,65.21,88,95,8.72,RU,1689869086
42,isafjordur,66.0755,-23.124,51.84,82,20,4.61,IS,1689868855
43,olonkinbyen,70.9221,-8.7187,42.15,85,100,2.15,SJ,1689869087
44,mozarlandia,-14.7447,-50.5706,95.11,17,62,13.96,BR,1689869087
45,blackmans bay,-43.0167,147.3167,43.52,85,75,5.75,AU,1689868862
46,greymouth,-42.4667,171.2,42.53,83,97,14.09,NZ,1689869087
47,puerto ayora,-0.7393,-90.3518,82.36,91,72,4.0,EC,1689868917
48,jamestown,42.097,-79.2353,82.02,54,20,9.22,US,1689869087
49,shuangjiang,26.1547,109.7138,73.83,93,86,3.33,CN,1689869087
50,mistelbach,48.57,16.5767,87.37,43,98,1.79,AT,1689869087
51,albany,42.6001,-73.9662,82.67,57,1,1.99,US,1689869009
52,enewetak,11.3474,162.3373,83.37,80,43,15.41,MH,1689869088
53,port saint john's,-31.6229,29.5448,57.6,55,93,8.3,ZA,1689869088
54,iqaluit,63.7506,-68.5145,38.93,100,100,5.01,CA,1689869088
55,port elizabeth,-33.918,25.5701,55.69,54,75,6.91,ZA,1689868816
56,tangalle,6.024,80.7911,82.56,86,92,9.95,LK,1689868962
57,ushuaia,-54.8,-68.3,31.66,93,100,4.61,AR,1689868923
58,el reten,10.6114,-74.2682,94.21,68,6,1.54,CO,1689869088
59,kone,-21.0595,164.8658,59.52,83,66,3.74,NC,1689869088
60,puerto natales,-51.7236,-72.4875,35.1,99,100,2.91,CL,1689869089
61,campo maior,-4.8278,-42.1686,95.79,25,0,9.15,BR,1689869089
62,az zulfi,26.2995,44.8154,103.15,7,1,11.52,SA,1689869089
63,yellowknife,62.456,-114.3525,73.92,56,100,2.3,CA,1689868856
64,georgetown,5.4112,100.3354,84.15,81,20,4.61,MY,1689868969
65,longyearbyen,78.2186,15.6401,57.04,54,20,19.57,SJ,1689869089
66,red bank,40.3471,-74.0643,86.9,63,0,11.5,US,1689869089
67,west island,-12.1568,96.8225,76.98,73,75,14.97,CC,1689869089
68,corinto,37.9407,22.9573,94.89,25,0,1.12,GR,1689869090
69,saipan,15.1355,145.701,82.65,100,20,6.91,MP,1689869090
70,ghardaia,32.4909,3.6735,110.55,6,20,5.75,DZ,1689869090
71,oranjemund,-28.55,16.4333,63.57,38,0,12.71,NA,1689869090
72,constantia,44.1833,28.65,88.7,59,39,13.76,RO,1689869090
73,vadso,70.0744,29.7487,49.08,93,75,21.85,NO,1689869090
74,stuttgart,48.7823,9.177,81.81,30,0,11.5,DE,1689868833
75,zheleznogorsk,52.331,35.3711,66.83,69,94,6.8,RU,1689869090
76,yeed,4.55,43.0333,86.7,39,100,21.99,SO,1689869091
77,pierre,44.3683,-100.351,73.27,60,0,4.0,US,1689869041
78,invercargill,-46.4,168.35,38.28,84,5,9.64,NZ,1689869091
79,richards bay,-28.783,32.0377,58.42,81,100,12.77,ZA,1689869091
80,pointe aux piments,-20.0628,57.5131,73.53,72,32,13.38,MU,1689869091
81,vilyuchinsk,52.9306,158.4028,53.87,95,96,1.52,RU,1689869091
82,ilulissat,69.2167,-51.1,50.02,87,75,6.91,GL,1689869091
83,vorgashor,67.5833,63.95,71.56,70,93,6.6,RU,1689869091
84,kirensk,57.7853,108.1119,58.03,81,27,0.31,RU,1689869092
85,hami,42.8,93.45,93.61,11,61,4.99,CN,1689869092
86,novyy turtkul',41.55,61.0167,84.11,20,0,9.22,UZ,1689869092
87,colonia,50.9333,6.95,77.97,40,0,11.5,DE,1689869092
88,praia da vitoria,38.7333,-27.0667,75.45,78,40,5.88,PT,1689869092
89,rokytne,51.2796,27.214,65.97,73,79,9.4,UA,1689869092
90,lihue,21.9789,-159.3672,78.39,85,100,17.27,US,1689869092
91,whitehorse,60.7161,-135.0538,59.09,62,75,2.3,CA,1689869087
92,nago,26.5881,127.9761,82.45,79,85,3.38,JP,1689869093
93,sinabang,2.4803,96.3801,78.93,82,96,3.85,ID,1689869093
94,amnat charoen,15.9167,104.75,77.29,91,94,4.83,TH,1689869093
95,auki,-8.7676,160.7034,77.7,91,98,3.49,SB,1689869093
96,college,64.8569,-147.8028,62.58,94,100,3.44,US,1689869051
97,al mahwit,15.4701,43.5448,72.37,37,84,9.75,YE,1689869093
98,saint-philippe,-21.3585,55.7679,72.99,89,51,8.14,RE,1689869093
99,bukama,-9.2,25.85,86.07,22,9,2.21,CD,1689869094
100,rurrenabaque,-14.4413,-67.5278,76.69,69,0,0.0,BO,1689869094
101,lerwick,60.1545,-1.1494,51.8,81,99,18.59,GB,1689869094
102,flin flon,54.7682,-101.865,69.64,60,75,3.44,CA,1689869094
103,mina clavero,-31.721,-65.0062,61.99,47,19,10.13,AR,1689869094
104,bonthe,7.5264,-12.505,81.66,77,98,11.27,SL,1689869094
105,mykolaiv,49.5237,23.9852,69.8,68,32,9.91,UA,1689869095
106,mil'kovo,55.6078,37.7956,69.94,62,65,10.98,RU,1689869095
107,piton saint-leu,-21.2196,55.3151,69.91,83,0,2.3,RE,1689869095
108,puerto san jose,13.9256,-90.8244,86.38,61,12,3.13,GT,1689869095
109,chibougamau,49.9168,-74.3659,64.02,63,75,5.64,CA,1689868966
110,tura,25.5198,90.2201,77.54,93,99,4.43,IN,1689869095
111,kruisfontein,-34.0033,24.7314,49.89,64,91,9.17,ZA,1689869095
112,pacific grove,36.6177,-121.9166,55.08,96,100,11.01,US,1689868808
113,angel r. cabada,18.5833,-95.4333,84.7,69,79,5.35,MX,1689869095
114,tazovsky,67.4667,78.7,63.68,83,76,3.89,RU,1689869096
115,nemuro,43.3236,145.575,57.04,92,31,5.28,JP,1689869096
116,badger,64.8,-147.5333,62.51,94,100,3.44,US,1689869096
117,sault ste. marie,46.5168,-84.3333,64.96,96,100,4.61,CA,1689868913
118,kavieng,-2.5744,150.7967,81.01,80,73,8.43,PG,1689869096
119,acapulco de juarez,16.8634,-99.8901,87.62,70,20,4.61,MX,1689869096
120,new kingman-butler,35.265,-114.0323,97.18,16,0,0.0,US,1689869096
121,kill devil hills,36.0307,-75.676,87.8,73,0,4.61,US,1689868828
122,tinajo,29.0788,-13.7081,79.68,54,20,24.16,ES,1689869096
123,avarua,-21.2078,-159.775,68.05,64,75,3.44,CK,1689869097
124,gadzhiyevo,69.2551,33.3362,50.36,88,100,20.87,RU,1689869097
125,qoryooley,1.7878,44.53,76.39,79,96,17.94,SO,1689869097
126,namioka,40.7072,140.5894,67.32,95,13,2.17,JP,1689869097
127,nizhnesortymskiy,62.4397,71.7603,66.69,79,100,3.62,RU,1689869097
128,ocean shores,46.9737,-124.1563,61.29,96,100,9.22,US,1689869044
129,iskateley,67.6803,53.1512,61.03,82,100,16.53,RU,1689868909
130,san antonio de pale,-1.4014,5.6325,75.16,77,7,11.32,GQ,1689868847
131,lebu,-37.6167,-73.65,55.08,94,100,24.96,CL,1689869036
132,naxos,37.1056,25.3764,89.19,51,0,13.0,GR,1689868874
133,mount isa,-20.7333,139.5,65.97,55,39,5.75,AU,1689869098
134,nerva,37.6963,-6.5497,97.3,12,0,13.13,ES,1689869098
135,palmer,42.1584,-72.3287,83.08,53,9,1.01,US,1689868911
136,badagry,6.4167,2.8833,81.32,76,68,13.67,NG,1689869098
137,mamuju,-2.6748,118.8885,79.05,87,20,3.78,ID,1689869098
138,cabedelo,-6.9811,-34.8339,83.07,65,43,15.1,BR,1689868859
139,mili,6.0815,171.735,83.12,81,100,18.84,MH,1689869098
140,igarka,67.4667,86.5833,63.05,98,100,8.9,RU,1689869059
141,waynesville,35.4887,-82.9887,82.78,55,47,5.93,US,1689868806
142,lamu,-2.2717,40.902,77.22,83,60,16.13,KE,1689869099
143,talca,-35.4333,-71.6667,60.31,67,100,5.79,CL,1689868813
144,hawaiian paradise park,19.5933,-154.9731,73.04,98,100,5.75,US,1689869099
145,dudinka,69.4058,86.1778,65.62,94,81,11.92,RU,1689868847
146,burley,42.5357,-113.7928,75.16,50,0,5.75,US,1689869099
147,kampene,-3.6,26.6667,83.08,44,53,5.3,CD,1689869099
148,lukolela,-1.0605,17.1821,86.77,39,12,2.06,CD,1689869099
149,khanty-mansiysk,61.0042,69.0019,73.51,68,20,7.0,RU,1689869099
150,raja,8.4596,25.678,81.07,62,77,5.1,SS,1689869100
151,freetown,8.484,-13.2299,83.91,79,40,10.36,SL,1689869100
152,tonj,7.2737,28.6822,81.46,66,86,0.38,SS,1689869100
153,tsagan aman,47.5639,46.7218,80.1,29,8,9.78,RU,1689869100
154,kodiak,57.79,-152.4072,51.31,100,100,0.0,US,1689868852
155,bredasdorp,-34.5322,20.0403,50.99,66,10,12.57,ZA,1689869100
156,grand gaube,-20.0064,57.6608,73.38,72,21,14.29,MU,1689869101
157,hono,57.6897,11.6497,65.5,76,14,27.22,SE,1689869101
158,utrik,11.2278,169.8474,82.89,78,100,16.78,MH,1689869101
159,nikolayevsk-on-amure,53.1406,140.73,61.29,99,57,3.94,RU,1689869101
160,ghat,24.9647,10.1728,100.85,10,0,10.94,LY,1689869101
161,salto del guaira,-24.0625,-54.3069,73.99,57,0,12.57,PY,1689869094
162,atafu village,-8.5421,-172.5159,82.35,79,45,9.57,TK,1689869102
163,newman,37.3138,-121.0208,79.14,24,0,5.55,US,1689869102
164,la passe,45.5549,-0.8967,80.83,57,92,13.4,FR,1689869102
165,lajedo,-8.6636,-36.32,72.79,69,50,16.58,BR,1689869103
166,gazi,35.3253,25.0669,89.6,61,0,5.75,GR,1689869103
167,port augusta,-32.5,137.7667,46.71,70,4,6.98,AU,1689869103
168,keflavik,64.0049,-22.5624,55.31,82,75,6.91,IS,1689869103
169,san patricio,28.017,-97.5169,93.06,44,70,11.68,US,1689869104
170,weno,7.4515,151.8468,82.35,89,100,4.61,FM,1689869104
171,kidal,18.4411,1.4078,105.21,17,39,14.9,ML,1689869104
172,al hazm,16.1641,44.7769,93.88,23,100,18.59,YE,1689869104
173,wailua homesteads,22.0669,-159.378,77.79,89,100,17.27,US,1689869105
174,tsiombe,-25.3,45.4833,67.26,82,4,7.54,MG,1689869105
175,luanco,43.6152,-5.7934,74.01,77,84,6.53,ES,1689869105
176,urzhar,47.093,81.6294,73.08,45,1,3.31,KZ,1689869105
177,sur,22.5667,59.5289,91.11,59,98,3.53,OM,1689869106
178,alice springs,-23.7,133.8833,49.55,66,16,3.44,AU,1689869106
179,afaahiti,-17.75,-149.2833,73.27,66,55,18.14,PF,1689869106
180,ust-nera,64.5667,143.2,66.34,53,57,5.86,RU,1689869106
181,laojunmiao,39.8333,97.7333,72.45,23,0,8.37,CN,1689869106
182,coquimbo,-29.9533,-71.3436,60.53,82,75,14.97,CL,1689869106
183,pagalungan,7.1417,124.3806,75.47,90,80,2.44,PH,1689869107
184,haiku-pauwela,20.9219,-156.3051,75.04,90,40,12.66,US,1689869107
185,ocean city,39.2776,-74.5746,87.19,76,31,8.99,US,1689869107
186,susuman,62.7833,148.1667,63.48,73,57,9.01,RU,1689869107
187,kashgar,39.4547,75.9797,88.81,23,40,17.9,CN,1689869107
188,ndende,-2.4008,11.3581,92.52,30,64,1.92,GA,1689869108
189,lijiang,26.8688,100.2207,59.85,97,99,2.17,CN,1689869108
190,yarmouth,41.7057,-70.2286,84.15,74,0,10.36,US,1689869108
191,jiagedaqi,50.4167,124.1167,58.93,59,17,2.98,CN,1689869108
192,nantucket,41.2835,-70.0995,80.74,87,81,3.91,US,1689868928
193,wangaratta,-36.3667,146.3333,45.46,97,99,1.63,AU,1689869109
194,san julian,21.0167,-102.1667,69.94,50,74,9.1,MX,1689869109
195,nekrasovskoye,57.6766,40.3657,66.09,68,0,11.18,RU,1689868851
196,south hedland,-20.4089,118.5983,62.53,67,47,3.44,AU,1689869109
197,dalnegorsk,44.5604,135.5701,63.16,84,1,3.04,RU,1689869109
198,mont-dore,-22.2833,166.5833,70.0,99,33,6.46,NC,1689869013
199,conduaga,8.862,117.4893,79.21,86,100,3.13,PH,1689869110
200,brisas de zicatela,15.8369,-97.0419,90.12,58,40,6.91,MX,1689869110
201,natal,-5.795,-35.2094,84.85,54,40,23.02,BR,1689869110
202,las palmas,28.4204,-14.0131,75.99,65,20,24.16,ES,1689869110
203,kapuskasing,49.4169,-82.4331,60.8,94,100,4.61,CA,1689869110
204,xilin hot,43.9667,116.0333,67.17,65,40,7.36,CN,1689869111
205,zhanaozen,43.3,52.8,86.79,24,0,12.57,KZ,1689869111
206,polyarnyy,69.1989,33.4478,51.48,85,100,20.38,RU,1689869111
207,turaif,31.6725,38.6637,100.65,7,0,16.11,SA,1689869111
208,altamira,-3.2033,-52.2064,89.69,66,40,5.75,BR,1689868927
209,praia,14.9215,-23.5087,86.54,70,40,11.5,CV,1689869112
210,rio grande,-32.035,-52.0986,66.31,83,90,15.86,BR,1689869112
211,saldanha,-33.0117,17.9442,60.85,62,0,12.8,ZA,1689869112
212,young,-32.6833,-57.6333,59.68,71,100,8.37,UY,1689869112
213,martapura,-3.4167,114.85,75.29,100,100,2.3,ID,1689869112
214,morehead,37.2711,-87.1764,81.0,88,40,3.44,US,1689869112
215,mazatlan,23.2167,-106.4167,90.01,81,75,1.01,MX,1689869051
216,dowagiac,41.9842,-86.1086,82.6,72,52,12.62,US,1689869113
217,port douglas,-16.4833,145.4667,68.9,81,61,6.02,AU,1689869113
218,hasaki,35.7333,140.8333,78.31,90,0,10.69,JP,1689869113
219,nishinoomote,30.7333,131.0,80.69,85,98,9.33,JP,1689869113
220,lazaro cardenas,17.9583,-102.2,83.88,74,99,4.0,MX,1689869113
221,aasiaat,68.7098,-52.8699,38.28,99,100,9.24,GL,1689868907
222,qaqortoq,60.7167,-46.0333,47.53,87,100,7.9,GL,1689869114
223,coahuayana de hidalgo,18.7,-103.6583,84.87,68,77,2.86,MX,1689869114
224,boa vista,2.8197,-60.6733,87.78,58,40,4.61,BR,1689869114
225,mahajanga,-15.7167,46.3167,82.42,61,75,3.44,MG,1689868862
226,miles city,46.4083,-105.8406,72.57,43,0,5.75,US,1689868929
227,uturoa,-16.7333,-151.4333,75.99,64,28,18.32,PF,1689869114
228,amungan,15.3652,119.9582,80.96,81,97,3.29,PH,1689869115
229,sinop,41.7711,34.8709,72.03,67,0,4.41,TR,1689869115
230,douglas,41.3,-96.167,77.68,63,0,9.22,US,1689869115
231,harper,4.375,-7.7169,78.8,83,100,12.46,LR,1689869115
232,trois-rivieres,46.3501,-72.5491,75.69,64,0,3.44,CA,1689868865
233,lodja,-3.4833,23.4333,91.45,24,8,1.66,CD,1689869115
234,san fernando,15.0286,120.6898,80.33,89,40,0.83,PH,1689868840
235,al hada,21.3675,40.2869,87.19,17,27,12.66,SA,1689869116
236,bandundu,-3.3167,17.3667,95.81,24,6,1.79,CD,1689869116
237,vila velha,-20.3297,-40.2925,75.15,81,75,16.11,BR,1689868841
238,merizo village,13.2658,144.6691,82.58,89,100,6.91,GU,1689869116
239,kurmuk,10.55,34.2833,73.67,93,100,3.83,SD,1689869117
240,kailua-kona,19.6406,-155.9956,82.6,91,75,10.36,US,1689869029
241,ofunato,39.0717,141.7167,66.99,94,87,1.9,JP,1689869117
242,ola,59.5833,151.2833,55.29,89,52,1.86,RU,1689869117
243,sarkand,45.41,79.9186,73.72,40,39,5.57,KZ,1689869117
244,port lincoln,-34.7333,135.8667,53.22,62,71,7.23,AU,1689868901
245,cururupu,-1.8283,-44.8683,86.68,56,21,6.49,BR,1689869117
246,lethem,3.3803,-59.7968,86.05,70,40,13.8,GY,1689868871
247,pechory,57.8164,27.6119,69.26,51,97,8.21,RU,1689869118
248,tindouf,27.6711,-8.1474,111.65,8,0,20.71,DZ,1689869118
249,aykhal,66.0,111.5,57.6,80,100,8.37,RU,1689869118
250,queenstown,-31.8976,26.8753,39.43,79,79,13.22,ZA,1689869118
251,tataouine,32.9297,10.4518,108.97,8,0,15.05,TN,1689869118
252,awjilah,29.1081,21.2869,101.35,13,0,10.38,LY,1689868961
253,paoua,7.2427,16.4406,75.29,89,100,4.32,CF,1689869119
254,wanning,18.8003,110.3967,81.61,90,16,5.73,CN,1689869119
255,mugia,43.1041,-9.2179,72.91,77,2,8.9,ES,1689869119
256,new norfolk,-42.7826,147.0587,44.71,97,65,2.98,AU,1689869119
257,el matama,16.7095,33.3565,105.44,17,40,6.69,SD,1689869119
258,northam,51.0333,-4.2167,65.39,67,20,12.39,GB,1689869120
259,palikir - national government center,6.9248,158.1611,81.23,80,100,9.98,FM,1689868998
260,tougue,11.4667,-11.6,78.66,73,100,3.18,GN,1689869120
261,oamaru,-45.0784,170.9801,42.39,83,97,11.07,NZ,1689869120
262,choibalsan,48.0667,114.5,64.38,58,100,6.35,MN,1689869120
263,ta`u,-14.2336,-169.5144,79.21,79,100,22.3,AS,1689869120
264,mawlaik,23.6333,94.4167,76.6,98,100,1.19,MM,1689869121
265,okha,53.5739,142.9478,51.8,94,100,12.37,RU,1689869126
266,darwin,-12.4611,130.8418,73.38,88,10,4.61,AU,1689869126
267,tommot,58.9564,126.2925,53.53,97,100,3.96,RU,1689869126
268,puerto colombia,10.9878,-74.9547,93.29,72,5,17.07,CO,1689869126
269,machico,32.7,-16.7667,78.71,63,40,14.97,PT,1689869127
270,labasa,-16.4167,179.3833,76.62,93,100,8.99,FJ,1689869127
271,nadym,65.5333,72.5167,74.82,59,71,7.99,RU,1689869127
272,sao tome,0.3365,6.7273,82.44,78,75,16.11,ST,1689869127
273,uige,-7.6087,15.0613,85.32,27,8,5.93,AO,1689869127
274,serowe,-22.3833,26.7167,56.62,65,65,15.17,BW,1689869128
275,zindah jan,34.3426,61.7468,87.64,23,0,23.02,AF,1689869128
276,selfoss,63.9331,-20.9971,67.05,69,96,10.42,IS,1689869128
277,hartford,41.7668,-72.7662,85.26,60,0,3.44,US,1689869070
278,hacienda huancane,-15.8222,-70.8856,49.86,15,0,7.49,PE,1689869129
279,lompoc,34.6391,-120.4579,72.93,84,100,6.91,US,1689868907
280,phatthalung,7.5,100.0833,77.27,91,100,4.59,TH,1689869134
281,laguna,38.421,-121.4238,87.08,64,0,0.0,US,1689868932
282,kapa'a,22.0752,-159.319,79.12,86,75,16.11,US,1689868953
283,saint-pierre,-21.3393,55.4781,73.08,83,0,2.3,RE,1689869134
284,ilebo,-4.3167,20.5833,92.46,25,38,0.72,CD,1689869134
285,sandnessjoen,66.0217,12.6316,63.12,82,75,6.91,NO,1689869135
286,weatherford,32.7593,-97.7972,95.09,46,99,13.76,US,1689869040
287,kingston,17.997,-76.7936,86.95,70,40,19.57,JM,1689869135
288,jinghong,21.991,100.7341,72.64,97,94,2.28,CN,1689869135
289,andergrove,-21.0833,149.1833,66.65,80,84,5.19,AU,1689869135
290,katsuura,35.1333,140.3,74.07,91,4,10.09,JP,1689869135
291,san andres,12.5847,-81.7006,87.82,74,20,14.97,CO,1689869136
292,callao,-12.0667,-77.15,73.69,60,75,9.22,PE,1689869117
293,kirando,-7.4167,30.6,75.42,51,4,4.88,TZ,1689869136
294,walvis bay,-22.9575,14.5053,58.62,67,7,3.67,NA,1689869136
295,dien bien phu,21.3833,103.0167,74.88,99,100,1.9,VN,1689869136
296,porto novo,6.4965,2.6036,84.02,71,78,13.15,BJ,1689868979
297,celendin,-6.8703,-78.1517,64.92,53,20,4.99,PE,1689869136
298,hamilton,39.1834,-84.5333,84.99,74,40,4.61,US,1689869075
299,misawa,40.6836,141.3597,66.6,95,5,3.71,JP,1689869137
300,guaruja,-23.9931,-46.2564,73.89,26,100,9.22,BR,1689869137
301,turpan,42.9333,89.1667,102.61,15,95,13.47,CN,1689869137
302,naze,28.3667,129.4833,77.92,83,95,4.23,JP,1689869137
303,soller,39.7662,2.7152,93.34,60,56,4.0,ES,1689869137
304,mordovo,52.0834,40.77,67.75,69,73,5.97,RU,1689869137
305,cam ranh,11.9214,109.1591,84.16,79,20,1.14,VN,1689869138
306,hadibu,12.65,54.0333,77.43,79,100,17.11,YE,1689869138
307,tralee,52.2704,-9.7026,61.05,67,40,6.91,IE,1689868856
308,caleta de carquin,-11.0925,-77.6267,70.43,69,29,8.61,PE,1689869138
309,el granada,37.5027,-122.4694,72.81,87,100,5.75,US,1689869138
310,talara,-4.5772,-81.2719,81.36,65,0,19.57,PE,1689869138
311,usogorsk,63.4106,48.6872,63.91,96,93,8.3,RU,1689869138
312,ferkessedougou,9.6,-5.2,91.74,45,72,4.23,CI,1689869139
313,salekhard,66.53,66.6019,67.46,85,98,10.87,RU,1689869139
314,kuqa,41.7278,82.9364,88.86,22,58,14.92,CN,1689869139
315,noshiro,40.2039,140.0242,67.44,96,6,5.41,JP,1689869139
316,murzuq,25.9155,13.9184,99.72,12,0,12.75,LY,1689869139
317,oxapampa,-10.5775,-75.4017,69.15,65,31,4.88,PE,1689869139
318,mukalla,14.5425,49.1242,91.98,52,92,7.11,YE,1689869140
319,baukau,51.5526,7.2042,74.39,54,85,5.99,DE,1689869140
320,general conesa,-40.1,-64.4333,59.31,37,66,23.2,AR,1689869140
321,karratha,-20.7377,116.8463,67.66,50,2,7.72,AU,1689869140
322,sovetskiy,61.3614,63.5842,67.68,76,64,4.7,RU,1689869140
323,al jawf,29.5,38.75,98.58,11,0,11.16,SA,1689869140
324,sokoto,13.0609,5.239,98.24,33,45,10.67,NG,1689868864
325,kozan,37.4552,35.8157,91.31,39,0,8.32,TR,1689869141
326,victoria point,-27.5833,153.3,52.92,79,0,5.75,AU,1689869141
327,mejit,10.2753,170.8646,83.05,81,95,16.33,MH,1689869110
328,emerald,-23.5333,148.1667,62.35,67,43,6.06,AU,1689869141
329,taroa,8.7058,171.2275,83.34,81,100,17.6,MH,1689869141
330,cabo san lucas,22.8909,-109.9124,94.6,43,20,8.05,MX,1689869008
331,yanchep,-31.55,115.6833,53.13,77,99,8.75,AU,1689869141
332,port alfred,-33.5906,26.891,50.18,73,63,11.54,ZA,1689869142
333,rundu,-17.9333,19.7667,74.61,20,23,2.68,NA,1689869142
334,alofi,-19.0595,-169.9187,73.29,73,96,9.22,NU,1689869142
335,pandan,14.0453,124.1694,80.74,85,100,5.7,PH,1689869142
336,dame-marie,18.5667,-74.4167,87.78,62,13,2.48,HT,1689869142
337,itoman,26.1247,127.6694,82.42,83,86,4.61,JP,1689869142
338,ostersund,63.1792,14.6357,57.65,33,0,5.75,SE,1689869142
339,kayangel,8.0823,134.7173,83.57,79,100,21.63,PW,1689869142
340,remire-montjoly,4.9167,-52.2667,89.64,62,75,10.36,GF,1689868913
341,tidjikja,18.5564,-11.4271,100.04,25,60,19.64,MR,1689869143
342,kerikeri,-35.2268,173.9474,45.91,95,6,1.9,NZ,1689869143
343,bikenibeu village,1.3673,173.1241,78.76,94,75,2.3,KI,1689868923
344,gorontalo,0.5412,123.0595,75.06,94,24,2.95,ID,1689869143
345,galle,6.0367,80.217,80.02,88,91,11.16,LK,1689869089
346,safford,32.834,-109.7076,102.11,27,0,3.44,US,1689869143
347,el calafate,-50.3408,-72.2768,37.99,94,100,1.54,AR,1689869143
348,saint-francois,46.4154,3.9054,81.84,34,0,3.44,FR,1689869031
349,axim,4.8699,-2.2405,80.31,76,35,10.45,GH,1689869144
350,purpe,64.4803,76.6897,73.78,50,46,11.83,RU,1689869144
351,shihezi,44.3,86.0333,85.08,35,100,8.39,CN,1689869144
352,tukrah,32.5341,20.5791,85.84,64,0,10.09,LY,1689869144
353,medea,36.2642,2.7539,99.16,16,1,9.89,DZ,1689869144
354,chonchi,-42.6128,-73.8092,55.11,87,97,10.63,CL,1689869144
355,kardla,58.9978,22.7492,64.38,55,40,9.22,EE,1689869144
356,flying fish cove,-10.4217,105.6791,74.88,83,75,12.66,CX,1689869145
357,ancud,-41.8697,-73.8203,52.68,88,76,27.78,CL,1689868846
358,borujen,31.9652,51.2873,85.28,16,78,4.45,IR,1689869145
359,enriquillo,17.9,-71.2333,91.08,70,5,15.86,DO,1689869145
360,dzilam gonzalez,21.2833,-88.9333,91.9,51,50,3.74,MX,1689869145
361,amahai,-3.3333,128.9167,82.0,87,64,6.6,ID,1689869145
362,macclenny,30.2822,-82.1221,94.78,63,3,1.01,US,1689869145
363,ternate,0.8,127.4,81.23,81,16,5.46,ID,1689869146
364,kamar mushani,32.8439,71.3669,94.19,49,8,3.85,PK,1689869146
365,ulladulla,-35.35,150.4667,51.71,51,54,8.12,AU,1689869146
366,singaraja,-8.112,115.0882,74.25,76,7,7.38,ID,1689869146
367,ejura,7.3856,-1.3562,81.57,82,75,6.11,GH,1689869146
368,winnemucca,40.973,-117.7357,83.16,22,0,2.59,US,1689869146
369,sainte-anne-des-monts,49.124,-66.4924,62.47,82,89,18.41,CA,1689869146
370,port-vila,-17.7338,168.3219,65.8,100,75,3.44,VU,1689868878
371,mhangura,-16.8939,30.1683,64.76,38,1,5.39,ZW,1689869147
372,happy valley-goose bay,53.3168,-60.3315,71.91,49,75,8.05,CA,1689869015
373,saynshand,44.8824,110.1163,70.18,60,100,21.97,MN,1689869147
374,tolanaro,-25.0319,46.9987,71.67,88,20,2.3,MG,1689869147
375,portland,45.5234,-122.6762,70.81,72,40,3.44,US,1689869105
376,arraial do cabo,-22.9661,-42.0278,73.26,64,75,17.27,BR,1689869130
377,kuta,-8.7233,115.1723,78.75,78,40,9.22,ID,1689869147
378,luena,-11.7833,19.9167,79.09,22,15,2.3,AO,1689869148
379,sittwe,20.15,92.9,80.53,91,100,16.67,MM,1689869148
380,nar'yan-mar,67.6713,53.087,60.94,82,100,16.67,RU,1689869148
381,salalah,17.0151,54.0924,78.89,94,100,6.91,OM,1689869148
382,gisborne,-38.6533,178.0042,53.19,87,100,8.23,NZ,1689869148
383,quibala,-10.7337,14.98,77.72,25,93,8.21,AO,1689869148
384,bandarbeyla,9.4942,50.8122,74.64,84,100,29.51,SO,1689869148
385,adrar,20.5022,-10.0711,110.61,6,32,11.34,MR,1689869149
386,launceston,-41.45,147.1667,43.61,96,75,5.75,AU,1689869149
387,shushtar,32.0455,48.8567,108.1,5,0,3.27,IR,1689869149
388,nueva esperanza,15.2667,-87.6,85.62,57,59,2.84,HN,1689869149
389,kafanchan,9.5833,8.3,75.83,87,96,4.76,NG,1689869149
390,motygino,58.1831,94.7592,62.69,60,0,4.21,RU,1689869150
391,chumphon,10.3333,98.8333,72.5,96,100,4.29,TH,1689869150
392,toliara,-23.35,43.6667,71.26,75,41,15.59,MG,1689869074
393,gokceada,40.2011,25.909,94.28,57,0,8.9,TR,1689869150
394,betio village,1.358,172.9211,78.84,77,77,10.22,KI,1689869150
395,crane,31.3974,-102.3501,86.83,41,94,17.54,US,1689869151
396,yreka,41.7354,-122.6345,77.18,43,0,4.61,US,1689869151
397,puerto rico,-26.796,-55.024,68.68,70,98,5.39,AR,1689869151
398,miri,4.4148,114.0089,80.74,83,40,6.91,MY,1689869151
399,birnin kudu,11.4459,9.4984,99.21,26,34,9.15,NG,1689869151
400,vila franca do campo,37.7167,-25.4333,72.01,65,100,2.17,PT,1689869151
401,fale old settlement,-9.3852,-171.2468,82.94,77,27,12.8,TK,1689869151
402,pochinok,54.4068,32.4407,62.58,79,99,6.33,RU,1689869152
403,isangel,-19.55,169.2667,71.08,78,66,13.22,VU,1689869152
404,sao felix do xingu,-6.6447,-51.995,94.48,21,4,4.74,BR,1689869152
405,quellon,-43.1167,-73.6167,57.45,77,75,14.97,CL,1689869015
406,kalemie,-5.9475,29.1947,74.14,54,4,1.81,CD,1689869152
407,prince rupert,54.3161,-130.3201,58.69,98,100,3.44,CA,1689869152
408,dzhalagash,45.0833,64.6667,87.49,22,31,14.79,KZ,1689869153
409,trashigang,27.3331,91.5542,73.38,96,97,1.5,BT,1689869153
410,rasra,25.85,83.85,97.27,43,73,12.86,IN,1689869153
411,santa cruz,-17.8,-63.1667,78.26,46,20,16.11,BO,1689868995
412,grass valley,39.2191,-121.0611,85.82,37,0,3.44,US,1689868859
413,labytnangi,66.6572,66.4183,69.94,75,91,10.11,RU,1689868975
414,muscat,23.6139,58.5922,87.82,59,85,9.46,OM,1689869153
415,santa terezinha,-29.9002,-50.0904,62.22,81,100,15.21,BR,1689869153
416,tengrela,10.4869,-6.4097,89.49,50,89,3.76,CI,1689869153
417,malvan,16.0667,73.4667,79.21,85,100,18.54,IN,1689868912
418,arkhangel'sk,64.5401,40.5433,71.46,71,76,7.25,RU,1689868936
419,fisterra,42.9049,-9.2629,72.75,82,0,12.01,ES,1689869154
420,cinisi,38.1562,13.1073,90.86,55,0,3.44,IT,1689869154
421,novo aripuana,-5.1206,-60.3797,96.28,27,3,3.98,BR,1689869154
422,conde,-7.2597,-34.9075,83.66,58,75,21.85,BR,1689869154
423,wakkanai,45.4094,141.6739,65.08,96,70,5.01,JP,1689868916
424,north guwahati,26.2014,91.7236,82.35,89,75,2.3,IN,1689869154
425,lastoursville,-0.8143,12.7287,77.85,88,100,3.85,GA,1689869155
426,loa janan,-0.583,117.095,74.43,99,79,3.71,ID,1689869155
427,myitkyina,25.3833,97.4,75.99,96,100,0.76,MM,1689869031
428,pozanti,37.4278,34.8717,85.59,31,0,2.19,TR,1689869155
429,kirillov,59.863,38.3813,56.93,94,100,5.35,RU,1689869155
430,sanctuary point,-35.1114,150.629,54.32,49,35,8.88,AU,1689869155
431,otaci,48.43,27.7939,79.7,46,62,13.71,MD,1689869155
432,viedma,-40.8135,-62.9967,56.66,41,76,21.39,AR,1689869156
433,kismayo,-0.3582,42.5454,77.32,81,95,16.31,SO,1689868859
434,medina,24.4686,39.6142,106.23,5,0,13.8,SA,1689869156
435,ponta delgada,37.7333,-25.6667,72.32,83,40,9.22,PT,1689869156
436,mahina,-17.5065,-149.489,74.97,60,75,18.41,PF,1689869156
437,hammerfest,70.6634,23.6821,48.65,93,75,11.5,NO,1689869047
438,bykovo,55.6361,38.0803,70.16,56,0,11.18,RU,1689869156
439,puerto baquerizo moreno,-0.9,-89.6,79.79,83,20,9.22,EC,1689869156
440,sitka,57.0531,-135.33,57.09,82,40,0.0,US,1689869156
441,tejen,37.3834,60.5054,92.75,21,38,7.83,TM,1689869157
442,lent'ekhi,42.7856,42.7261,72.77,75,0,1.34,GE,1689869157
443,burang,30.25,81.1667,55.94,79,99,4.61,CN,1689869106
444,olovyannaya,50.95,115.5667,62.42,46,95,2.57,RU,1689869157
445,minas de marcona,-15.2119,-75.1103,63.97,60,34,8.03,PE,1689869157
446,umm kaddadah,13.6017,26.6876,93.04,29,33,11.45,SD,1689869157
447,barakani,-12.1356,44.4317,76.75,80,96,13.47,KM,1689869158
448,kwale,5.7063,6.4374,76.23,94,100,5.61,NG,1689869158
449,fuglafjordur,62.244,-6.814,48.67,94,100,17.9,FO,1689869158
450,mildura,-34.2,142.15,43.07,89,4,9.6,AU,1689869158
451,revelstoke,50.9832,-118.2023,66.22,59,0,2.3,CA,1689869158
452,piti village,13.4626,144.6933,82.89,85,0,0.0,GU,1689869158
453,sendenhorst,51.8333,7.8333,74.23,40,80,8.25,DE,1689869158
454,fernandina beach,30.6697,-81.4626,93.97,62,0,6.91,US,1689869159
455,champerico,14.3,-91.9167,90.14,72,8,3.47,GT,1689869159
456,howard springs,-12.497,131.047,73.31,64,10,6.04,AU,1689869159
457,shamakhi,40.6314,48.6414,76.55,57,10,7.49,AZ,1689869159
458,myeik,12.4333,98.6,75.94,90,100,4.81,MM,1689869159
459,borovichi,58.3878,33.9155,61.16,65,100,8.55,RU,1689869159
460,la'ie,21.6477,-157.9253,78.76,83,90,7.0,US,1689869159
461,guider,9.9342,13.9486,94.87,36,59,2.68,CM,1689869159
462,dalianwan,39.0286,121.695,80.64,61,0,6.71,CN,1689869160
463,shingu,33.7333,135.9833,74.91,90,96,3.58,JP,1689869160
464,gutao,37.2025,112.1781,73.38,71,66,3.58,CN,1689869160
465,dapa,9.7594,126.0531,81.84,79,97,6.64,PH,1689869160
466,arawa,-6.2132,155.5367,76.73,92,89,4.43,PG,1689869160
467,ghadamis,30.1337,9.5007,107.11,7,0,11.3,LY,1689868937
468,pasuquin,18.3328,120.6177,80.55,94,20,5.75,PH,1689869161
469,bucerias,20.75,-105.3333,87.98,78,60,2.71,MX,1689868926
470,sinjai,-5.1241,120.253,74.66,92,37,3.87,ID,1689869161
471,laayoune,27.1622,-13.2032,88.14,45,2,28.77,EH,1689869162
472,sao gabriel da cachoeira,-0.1303,-67.0892,84.0,89,0,3.44,BR,1689869163
473,ivanteyevka,55.9711,37.9208,67.66,58,59,3.0,RU,1689869165
474,ust'-kulom,61.6864,53.6902,65.53,72,24,7.45,RU,1689869166
475,twentynine palms,34.1356,-116.0542,102.06,23,2,2.51,US,1689869166
476,diawara,15.022,-12.5437,91.44,48,99,5.93,SN,1689869167
477,lata,40.1629,-8.3327,74.07,46,0,13.13,PT,1689869167
478,whakatane,-37.9585,176.9854,55.51,83,100,4.0,NZ,1689869167
479,bonny,4.4522,7.1681,80.02,79,98,13.15,NG,1689869167
480,mata-utu,-13.2816,-176.1745,80.91,82,70,10.16,WF,1689869168
481,nadi,-17.8,177.4167,73.4,94,75,5.75,FJ,1689869168
482,graham,47.0529,-122.2943,70.7,75,0,4.61,US,1689869168
483,butha-buthe,-28.8333,28.5,33.04,74,79,6.02,LS,1689869168
484,salinas,36.6777,-121.6555,55.08,100,100,3.44,US,1689869020
485,jijiga,9.35,42.8,72.75,58,100,12.01,ET,1689869169
486,nova vicosa,-17.8919,-39.3719,73.4,85,97,13.53,BR,1689869012
487,byron bay,-28.65,153.6167,51.71,54,0,5.73,AU,1689869169
488,batyrevo,55.0675,47.6111,66.06,61,67,15.73,RU,1689869169
489,saint-junien,45.8833,0.9,81.18,34,100,5.37,FR,1689869169
490,hinton,53.4001,-117.5857,70.75,48,22,1.03,CA,1689868951
491,upata,8.0086,-62.3989,76.35,88,100,4.25,VE,1689869169
492,novodvinsk,64.4165,40.8122,73.36,63,76,8.52,RU,1689869170
493,midvagur,62.0511,-7.1939,49.03,93,100,20.71,FO,1689869170
494,anxiang,29.4,112.15,82.2,82,97,5.84,CN,1689869170
495,daru,-9.0763,143.2092,76.12,83,100,11.97,PG,1689869170
496,'ain el melh,34.8415,4.1638,102.99,8,67,10.42,DZ,1689869170
497,irece,-11.3042,-41.8558,82.47,26,7,21.52,BR,1689868956
498,dalandzadgad,43.5708,104.425,60.1,74,100,10.16,MN,1689869171
499,mormugao,15.4,73.8,74.46,100,100,13.8,IN,1689869171
500,priekule,56.4468,21.5897,63.72,54,65,13.2,LV,1689869171
501,bubaque,11.2833,-15.8333,79.41,84,100,17.63,GW,1689869029
502,manati,18.4275,-66.4921,92.95,77,91,16.71,PR,1689869171
503,dazhou,31.2159,107.5009,76.86,89,100,1.63,CN,1689869171
504,ban huai thalaeng,14.9833,102.65,80.22,71,100,6.49,TH,1689869171
505,guarapari,-20.6667,-40.4975,73.89,84,100,10.67,BR,1689869052
506,zhezqazghan,47.7833,67.7667,86.29,23,38,7.76,KZ,1689869172
507,beltangadi,13.9833,75.3,70.97,90,100,11.12,IN,1689869172
508,bakchar,57.0186,82.0711,61.63,98,98,4.88,RU,1689869172
509,paola,39.3599,16.0396,99.7,41,0,3.4,IT,1689869172
510,balabac,7.9868,117.0645,80.69,84,100,8.72,PH,1689869172
511,pingliang,35.5392,106.6861,72.57,43,96,7.16,CN,1689869173
512,mandera,3.9366,41.867,90.34,34,100,16.28,KE,1689869173
513,port shepstone,-30.7414,30.455,58.59,64,81,17.02,ZA,1689869173
514,alva,56.1528,-3.8051,65.59,85,92,1.99,GB,1689869173
515,mpika,-11.8343,31.4529,65.88,40,0,8.25,ZM,1689869174
516,rampur,28.8167,79.0333,92.32,48,4,4.59,IN,1689869128
517,tamandare,-8.7597,-35.1047,79.34,68,62,16.22,BR,1689869174
518,i-n-salah,27.1935,2.4607,111.99,6,0,21.47,DZ,1689869174
519,lusaka,-15.4067,28.2871,75.45,29,0,9.22,ZM,1689869132
520,touros,-5.1989,-35.4608,83.16,58,18,19.75,BR,1689869100
521,banda aceh,5.5577,95.3222,80.76,79,54,14.83,ID,1689869175
522,kotlas,61.2611,46.6556,63.84,95,98,6.24,RU,1689869175
523,vizinga,61.0749,50.1031,64.96,82,29,7.72,RU,1689869175
524,belebey,54.1167,54.1167,63.66,58,84,7.74,RU,1689869176
525,acarau,-2.8856,-40.12,87.94,47,0,17.29,BR,1689869176
526,magadan,59.5667,150.8,55.87,88,48,4.59,RU,1689869176
527,broome,42.2506,-75.833,83.62,50,0,1.99,US,1689868999
528,trairi,-3.2778,-39.2689,87.17,44,0,16.6,BR,1689869176
529,carutapera,-1.195,-46.02,86.68,58,13,8.16,BR,1689869176
530,reggane,26.7158,0.1714,113.74,5,0,21.16,DZ,1689869177
531,orenburg,51.7727,55.0988,73.42,54,73,6.96,RU,1689869177
532,khovd,48.0056,91.6419,78.64,24,71,10.63,MN,1689869177
533,taltal,-25.4,-70.4833,66.45,67,68,3.8,CL,1689868902
534,khairagarh,26.95,77.8167,97.88,42,95,5.68,IN,1689869177
535,itaituba,-4.2761,-55.9836,93.36,55,20,3.44,BR,1689869113
536,pisco,-13.7,-76.2167,68.05,77,100,6.91,PE,1689869126
537,yaren,-0.5472,166.916,81.16,80,98,12.57,NR,1689869178
538,kulhudhuffushi,6.6221,73.07,83.17,81,80,16.53,MV,1689869178
539,andratx,39.5755,2.4202,92.95,74,75,9.1,ES,1689869178
540,codrington,-38.2667,141.9667,45.37,78,43,10.18,AU,1689869178
541,tak,16.5833,98.8333,68.4,96,100,2.77,TH,1689869178
542,mizdah,31.4451,12.9801,102.74,9,0,16.84,LY,1689869183
543,kachug,53.9606,105.8817,57.04,66,100,2.62,RU,1689869183
544,santiago de cao,-7.9589,-79.2392,73.53,78,100,10.36,PE,1689869184
545,samana,19.2056,-69.3369,89.82,74,40,11.5,DO,1689869184
546,tamanrasset,22.785,5.5228,96.71,8,40,6.91,DZ,1689869012
547,fortuna,40.5982,-124.1573,58.66,98,75,6.91,US,1689869184
548,bereket,39.2446,55.5154,90.72,19,0,10.74,TM,1689869184
549,kirkwall,58.9848,-2.9587,53.65,71,40,19.57,GB,1689869184
550,dakhla,23.6848,-15.958,77.02,69,64,29.93,EH,1689869185
551,ambon,-3.6954,128.1814,79.88,95,40,6.91,ID,1689869185
552,puerto santa,-8.9906,-78.6456,72.05,74,73,9.73,PE,1689869185
553,visby,57.6409,18.296,69.04,55,0,16.11,SE,1689868960
554,santa elena de uairen,4.6167,-61.1333,80.78,54,18,8.97,VE,1689869186
555,enshi,30.3,109.4833,75.6,94,100,1.59,CN,1689868973
556,statesville,35.7826,-80.8873,85.51,67,0,4.61,US,1689869187
557,saudarkrokur,65.7461,-19.6394,51.28,75,62,5.82,IS,1689868965
558,chiredzi,-21.05,31.6667,66.31,62,87,13.91,ZW,1689869188
